[
  { "name": "Velachery", "aliases": ["Velacheri", "Vellachery", "Velachery MRTS"], "lat": 12.9791, "lng": 80.221 },
  { "name": "Taramani", "aliases": ["Tharamani", "Taramani MRTS"], "lat": 12.982, "lng": 80.242 },
  { "name": "Adyar", "aliases": ["Adayar", "Adyaru"], "lat": 13.0012, "lng": 80.2565 },
  { "name": "Guindy", "aliases": ["Gundy", "Guindi"], "lat": 13.0067, "lng": 80.2206 },
  { "name": "Saidapet", "aliases": ["Saidapettai", "Saithapet"], "lat": 13.0213, "lng": 80.2231 },
  { "name": "T. Nagar", "aliases": ["T Nagar", "Thyagaraya Nagar", "TNagar"], "lat": 13.0418, "lng": 80.2341 },
  { "name": "Mylapore", "aliases": ["Mailapore", "Mylai"], "lat": 13.0339, "lng": 80.2698 },
  { "name": "Besant Nagar", "aliases": ["Bessant Nagar", "Besent Nagar", "Elliots"], "lat": 12.9986, "lng": 80.2669 },
  { "name": "Thiruvanmiyur", "aliases": ["Tiruvanmiyur", "Thiruvanmyur"], "lat": 12.9829, "lng": 80.2596 },
  { "name": "Kotturpuram", "aliases": ["Kottur puram", "Koturpuram"], "lat": 13.0155, "lng": 80.2436 },
  { "name": "Nungambakkam", "aliases": ["Nungambakam", "Nungabakkam"], "lat": 13.0569, "lng": 80.2425 },
  { "name": "Egmore", "aliases": ["Eghmore", "Ezhumbur"], "lat": 13.0732, "lng": 80.2609 },
  { "name": "Royapettah", "aliases": ["Royapetta", "Royapet"], "lat": 13.0524, "lng": 80.2649 },
  { "name": "Triplicane", "aliases": ["Thiruvallikeni", "Tiruvallikeni"], "lat": 13.0569, "lng": 80.2757 },
  { "name": "Chintadripet", "aliases": ["Chinthadripet", "Chindadripet"], "lat": 13.0725, "lng": 80.2725 },
  { "name": "Kodambakkam", "aliases": ["Kodambakam", "Kodambakkm"], "lat": 13.051, "lng": 80.226 },
  { "name": "Vadapalani", "aliases": ["Vadapalny", "Vadaplani"], "lat": 13.05, "lng": 80.2121 },
  { "name": "Ashok Nagar", "aliases": ["Ashoknagar", "Asok Nagar"], "lat": 13.0353, "lng": 80.21 },
  { "name": "K.K. Nagar", "aliases": ["KK Nagar", "Kalaignar Karunanidhi Nagar"], "lat": 13.04, "lng": 80.198 },
  { "name": "Ambattur", "aliases": ["Ambatur", "Ambathur"], "lat": 13.1143, "lng": 80.1548 },
  { "name": "Anna Nagar", "aliases": ["Annanagar", "Anna Nager"], "lat": 13.085, "lng": 80.2101 },
  { "name": "Perambur", "aliases": ["Peramboor", "Perambhur"], "lat": 13.118, "lng": 80.233 },
  { "name": "Kolathur", "aliases": ["Kolathoor", "Kollathur"], "lat": 13.125, "lng": 80.221 },
  { "name": "Villivakkam", "aliases": ["Vilivakkam", "Villivakam"], "lat": 13.105, "lng": 80.2 },
  { "name": "Aminjikarai", "aliases": ["Aminjikkarai", "Aminchikarai"], "lat": 13.073, "lng": 80.223 },
  { "name": "Choolaimedu", "aliases": ["Chulaimedu", "Choolaimed"], "lat": 13.067, "lng": 80.226 },
  { "name": "Teynampet", "aliases": ["Teynampettai", "Thaynampet"], "lat": 13.04, "lng": 80.25 },
  { "name": "Alwarpet", "aliases": ["Alwar pet", "Alwarpettai"], "lat": 13.033, "lng": 80.254 },
  { "name": "Mandaveli", "aliases": ["Mandavelli", "Mandaiveli"], "lat": 13.027, "lng": 80.266 },
  { "name": "Kottivakkam", "aliases": ["Kotivakkam", "Kottivakam"], "lat": 12.956, "lng": 80.257 },
  { "name": "Palavakkam", "aliases": ["Palavakam", "Pallavakkam"], "lat": 12.947, "lng": 80.256 },
  { "name": "Neelankarai", "aliases": ["Nilankarai", "Neelangarai"], "lat": 12.943, "lng": 80.253 },
  { "name": "Injambakkam", "aliases": ["Injambakam", "Enjambakkam"], "lat": 12.913, "lng": 80.247 },
  { "name": "Sholinganallur", "aliases": ["Solinganallur", "Cholinganallur"], "lat": 12.901, "lng": 80.2279 },
  { "name": "Perungudi", "aliases": ["Perungdi", "Perungudy"], "lat": 12.963, "lng": 80.242 },
  {
    "name": "Pallikaranai",
    "aliases": ["Pallikkaranai", "Pallikaranai marsh", "Palikaranai"],
    "lat": 12.937,
    "lng": 80.21
  },
  { "name": "Madipakkam", "aliases": ["Madippakkam", "Madipakam"], "lat": 12.964, "lng": 80.199 },
  { "name": "Nanganallur", "aliases": ["Nanganalur", "Nangnallur"], "lat": 12.98, "lng": 80.19 },
  { "name": "Chromepet", "aliases": ["Chrompet", "Chromepettai"], "lat": 12.9516, "lng": 80.1462 },
  { "name": "Tambaram", "aliases": ["Thambaram", "Tambram"], "lat": 12.9249, "lng": 80.11 }
]
